Park_Code,Name,Designation,States,Latitude,Longitude,Description,URL,Country,UNESCO_Year
ANJAR,Anjar,UNESCO World Heritage Site (Cultural),Beqaa,33.7306,35.9306,"Anjar - UNESCO World Heritage Site. Umayyad city ruins from the 8th century with well-preserved grid layout.",https://whc.unesco.org/en/list/293,Lebanon,1984
BAALBEK,Baalbek,UNESCO World Heritage Site (Cultural),Beqaa,34.0069,36.2042,"Baalbek - UNESCO World Heritage Site. Ancient Phoenician city with impressive Roman temple ruins.",https://whc.unesco.org/en/list/294,Lebanon,1984
BYBLOS,Byblos,UNESCO World Heritage Site (Cultural),Mount Lebanon,34.1219,35.6481,"Byblos - UNESCO World Heritage Site. One of the oldest continuously inhabited cities in the world.",https://whc.unesco.org/en/list/295,Lebanon,1984
TYRE,Tyre,UNESCO World Heritage Site (Cultural),South,33.2708,35.1961,"Tyre - UNESCO World Heritage Site. Ancient Phoenician city with well-preserved Roman and Byzantine ruins.",https://whc.unesco.org/en/list/299,Lebanon,1984
QADISHA,Ouadi Qadisha,UNESCO World Heritage Site (Cultural),North,34.2833,35.9500,"Ouadi Qadisha (the Holy Valley) and the Forest of the Cedars of God (Horsh Arz el-Rab) - UNESCO World Heritage Site. Sacred valley with ancient monasteries and cedar forest.",https://whc.unesco.org/en/list/850,Lebanon,1998
