Park_Code,Name,Designation,States,Latitude,Longitude,Description,URL,Country,Activity_Type,Duration_Days,Difficulty
EBC,Everest Base Camp Trek,Himalayan Trekking Route,Solukhumbu,27.9881,86.9250,"Everest Base Camp Trek - One of the world's most famous treks leading to the base camp of Mount Everest. Duration: 12-14 days. Highlights: Namche Bazaar, Tengboche Monastery, Kala Patthar viewpoint.",https://en.wikipedia.org/wiki/Everest_Base_Camp,Nepal,Trekking,12-14,Moderate to Challenging
ANC,Annapurna Circuit Trek,Himalayan Trekking Route,"Manang, Mustang",28.6000,84.0000,"Annapurna Circuit Trek - Classic trek encircling the Annapurna Massif. Duration: 15-20 days. Highlights: Thorong La Pass (5,416m), diverse landscapes, traditional villages.",https://en.wikipedia.org/wiki/Annapurna_Circuit,Nepal,Trekking,15-20,Moderate to Challenging
ABC,Annapurna Base Camp Trek,Himalayan Trekking Route,"Kaski, Myagdi",28.5833,83.8333,"Annapurna Base Camp Trek - Popular trek to the base of Annapurna I. Duration: 10-12 days. Highlights: Machapuchare views, hot springs, Gurung villages.",https://en.wikipedia.org/wiki/Annapurna_Base_Camp,Nepal,Trekking,10-12,Moderate
LTV,Langtang Valley Trek,Himalayan Trekking Route,Rasuwa,28.2167,85.5167,"Langtang Valley Trek - Scenic trek into the ""Valley of Glaciers"" near Kathmandu. Duration: 6-8 days. Highlights: Tamang culture, Langtang Lirung views, Kyanjin Gompa.",https://en.wikipedia.org/wiki/Langtang_Valley,Nepal,Trekking,6-8,Moderate
PHL,Poon Hill Trek,Himalayan Trekking Route,Kaski,28.4000,83.7000,"Poon Hill Trek - Accessible trek ideal for beginners. Duration: 5-7 days. Highlights: Sunrise views over Annapurna and Dhaulagiri ranges, Ghorepani village.",https://en.wikipedia.org/wiki/Poon_Hill,Nepal,Trekking,5-7,Easy to Moderate
MAN,Manaslu Circuit Trek,Himalayan Trekking Route,"Gorkha, Manang",28.5500,84.5500,"Manaslu Circuit Trek - Remote trek around Mount Manaslu. Duration: 14-16 days. Highlights: Larkya La Pass (5,106m), Tibetan culture, pristine wilderness.",https://en.wikipedia.org/wiki/Manaslu,Nepal,Trekking,14-16,Challenging
UMT,Upper Mustang Trek,Himalayan Trekking Route,Mustang,29.1667,83.8333,"Upper Mustang Trek - Journey to the ancient Kingdom of Lo. Duration: 12-14 days. Highlights: Tibetan culture, Lo Manthang, desert-like landscapes.",https://en.wikipedia.org/wiki/Upper_Mustang,Nepal,Trekking,12-14,Moderate
GOK,Gokyo Lakes Trek,Himalayan Trekking Route,Solukhumbu,27.9500,86.7000,"Gokyo Lakes Trek - Alternative route in Everest region with stunning glacial lakes. Duration: 12-14 days. Highlights: Gokyo Lakes, Gokyo Ri viewpoint, Cho La Pass.",https://en.wikipedia.org/wiki/Gokyo_Lakes,Nepal,Trekking,12-14,Moderate to Challenging
