Park_Code,Name,Designation,States,Latitude,Longitude,Description,URL,Country,UNESCO_Year
HEGRA,Hegra,UNESCO World Heritage Site (Cultural),Al Madinah,26.7911,37.9528,"Hegra (Mad칙in S칙lih) - UNESCO World Heritage Site. Largest conserved site of the Nabataean civilization after Petra.",https://whc.unesco.org/en/list/1293,Saudi Arabia,2008
DIRIYAH,At-Turaif District,UNESCO World Heritage Site (Cultural),Riyadh,24.7333,46.5833,"At-Turaif District in ad-Dir'iyah - UNESCO World Heritage Site. First capital of the Saudi dynasty with traditional Najdi architecture.",https://whc.unesco.org/en/list/1329,Saudi Arabia,2010
JEDDAH,Historic Jeddah,UNESCO World Heritage Site (Cultural),Makkah,21.4858,39.1925,"Historic Jeddah, the Gate to Makkah - UNESCO World Heritage Site. Historic port city with distinctive coral architecture.",https://whc.unesco.org/en/list/1361,Saudi Arabia,2014
ROCKART,Rock Art,UNESCO World Heritage Site (Cultural),Ha'il,28.0000,40.0000,"Rock Art in the Hail Region of Saudi Arabia - UNESCO World Heritage Site. Ancient petroglyphs and inscriptions.",https://whc.unesco.org/en/list/1472,Saudi Arabia,2015
ALAHSA,Al-Ahsa Oasis,UNESCO World Heritage Site (Cultural),Eastern Province,25.4167,49.6167,"Al-Ahsa Oasis, an Evolving Cultural Landscape - UNESCO World Heritage Site. Largest oasis in the world with traditional irrigation systems.",https://whc.unesco.org/en/list/1563,Saudi Arabia,2018
HIMA,Hima Cultural Area,UNESCO World Heritage Site (Cultural),Najran,18.2500,44.4500,"拷발m캐 Cultural Area - UNESCO World Heritage Site. Ancient rock art site with thousands of petroglyphs and inscriptions.",https://whc.unesco.org/en/list/1619,Saudi Arabia,2021
URAN,Ancient Najran,UNESCO World Heritage Site (Cultural),Najran,17.4917,44.1278,"Ancient Najran - UNESCO World Heritage Site. Historic oasis city with ancient ruins and traditional architecture.",https://whc.unesco.org/en/list/1668,Saudi Arabia,2023
