Park_Code,Name,Designation,States,Latitude,Longitude,Description,URL,Country,Temple_Type
TEA,Temple of the Tooth,Buddhist Temple,Central Province,7.2944,80.6414,Temple of the Tooth (Sri Dalada Maligawa) - UNESCO World Heritage Site. Houses the relic of the tooth of Buddha.,https://en.wikipedia.org/wiki/Temple_of_the_Tooth,Sri Lanka,Buddhist
DAM,Dambulla Cave Temple,Buddhist Temple,Central Province,7.8567,80.6492,Dambulla Cave Temple - UNESCO World Heritage Site. Largest and best-preserved cave temple complex in Sri Lanka.,https://en.wikipedia.org/wiki/Dambulla_cave_temple,Sri Lanka,Buddhist
KEL,Kandy Kataragama Devalaya,Hindu Temple,Central Province,7.2944,80.6414,Kandy Kataragama Devalaya - Hindu temple dedicated to God Kataragama in Kandy.,https://en.wikipedia.org/wiki/Kataragama_temple,Sri Lanka,Hindu
KAT,Kataragama Temple,Hindu Temple,Uva Province,6.4167,81.3333,"Kataragama Temple - Sacred pilgrimage site for Hindus, Buddhists, and Muslims.",https://en.wikipedia.org/wiki/Kataragama_temple,Sri Lanka,Hindu
GAL,Gangaramaya Temple,Buddhist Temple,Western Province,6.9167,79.8500,Gangaramaya Temple - One of the most important temples in Colombo.,https://en.wikipedia.org/wiki/Gangaramaya_Temple,Sri Lanka,Buddhist
MIR,Mihintale,Buddhist Temple,North Central Province,8.3500,80.5167,Mihintale - Ancient Buddhist monastery. Birthplace of Buddhism in Sri Lanka.,https://en.wikipedia.org/wiki/Mihintale,Sri Lanka,Buddhist
POL,Polonnaruwa Vatadage,Buddhist Temple,North Central Province,7.9333,81.0000,Polonnaruwa Vatadage - UNESCO World Heritage Site. Ancient circular relic house.,https://en.wikipedia.org/wiki/Polonnaruwa,Sri Lanka,Buddhist
ANU,Anuradhapura Sacred City,Buddhist Temple,North Central Province,8.3111,80.4031,Anuradhapura - UNESCO World Heritage Site. Ancient capital with many Buddhist temples and stupas.,https://en.wikipedia.org/wiki/Anuradhapura,Sri Lanka,Buddhist
