Park_Code,Name,Designation,States,Latitude,Longitude,Description,URL,Country,UNESCO_Year
DAMASCUS,Ancient City of Damascus,UNESCO World Heritage Site (Cultural),Damascus,33.5117,36.3067,"Ancient City of Damascus - UNESCO World Heritage Site. One of the oldest continuously inhabited cities in the world.",https://whc.unesco.org/en/list/20,Syria,1979
BOSRA,Ancient City of Bosra,UNESCO World Heritage Site (Cultural),Daraa,32.5181,36.4819,"Ancient City of Bosra - UNESCO World Heritage Site. Roman city with one of the best-preserved Roman theaters.",https://whc.unesco.org/en/list/22,Syria,1980
PALMYRA,Site of Palmyra,UNESCO World Heritage Site (Cultural),Homs,34.5500,38.2667,"Site of Palmyra - UNESCO World Heritage Site. Ancient Semitic city with impressive Roman ruins.",https://whc.unesco.org/en/list/23,Syria,1980
ALEPPO,Ancient City of Aleppo,UNESCO World Heritage Site (Cultural),Aleppo,36.2000,37.1500,"Ancient City of Aleppo - UNESCO World Heritage Site. Historic city with one of the largest covered souks in the world.",https://whc.unesco.org/en/list/21,Syria,1986
CRAC,Medieval Fortresses,UNESCO World Heritage Site (Cultural),Homs,34.7500,36.3000,"Crac des Chevaliers and Qal'at Salah El-Din - UNESCO World Heritage Site. Two of the most important medieval fortresses in the Middle East.",https://whc.unesco.org/en/list/1229,Syria,2006
VILLAGES,Ancient Villages,UNESCO World Heritage Site (Cultural),Idlib,35.8000,36.5000,"Ancient Villages of Northern Syria - UNESCO World Heritage Site. Collection of abandoned Byzantine villages.",https://whc.unesco.org/en/list/1348,Syria,2011
